{"type":"FeatureCollection","crs":{"type":"name","properties":{"name":"EPSG:4490"}},"features":[{"type":"Feature","id":0,"geometry":{"type":"Point","coordinates":[114.19748178832978,35.80055888429218]},"properties":{"FID":0,"OBJECTID":1,"名称":"村庄入口","备注":" ","环卫工":" ","养殖点":" "}},{"type":"Feature","id":1,"geometry":{"type":"Point","coordinates":[114.19717302727248,35.799987088692177]},"properties":{"FID":1,"OBJECTID":2,"名称":"停车场","备注":" ","环卫工":" ","养殖点":" "}},{"type":"Feature","id":2,"geometry":{"type":"Point","coordinates":[114.197016932883,35.798915182277]},"properties":{"FID":2,"OBJECTID":3,"名称":"精品文化游园","备注":" ","环卫工":" ","养殖点":" "}},{"type":"Feature","id":3,"geometry":{"type":"Point","coordinates":[114.19659774926893,35.79816381543322]},"properties":{"FID":3,"OBJECTID":4,"名称":"村庄入口","备注":" ","环卫工":" ","养殖点":" "}},{"type":"Feature","id":4,"geometry":{"type":"Point","coordinates":[114.20022055143694,35.800395413471456]},"properties":{"FID":4,"OBJECTID":5,"名称":"停车场","备注":" ","环卫工":" ","养殖点":" "}},{"type":"Feature","id":5,"geometry":{"type":"Point","coordinates":[114.20177018828062,35.799456032140348]},"properties":{"FID":5,"OBJECTID":6,"名称":"停车场","备注":" ","环卫工":" ","养殖点":" "}},{"type":"Feature","id":6,"geometry":{"type":"Point","coordinates":[114.19890687947135,35.801024291899417]},"properties":{"FID":6,"OBJECTID":7,"名称":"许仙文化广场","备注":" ","环卫工":" ","养殖点":" "}},{"type":"Feature","id":7,"geometry":{"type":"Point","coordinates":[114.19842232487004,35.800068677768678]},"properties":{"FID":7,"OBJECTID":8,"名称":"宋代美食商业街","备注":" ","环卫工":" ","养殖点":" "}},{"type":"Feature","id":8,"geometry":{"type":"Point","coordinates":[114.19926385229181,35.802094602713694]},"properties":{"FID":8,"OBJECTID":9,"名称":"安置新街","备注":" ","环卫工":" ","养殖点":" "}},{"type":"Feature","id":9,"geometry":{"type":"Point","coordinates":[114.20050040943154,35.80144155288103]},"properties":{"FID":9,"OBJECTID":10,"名称":"古风婚庆酒店","备注":" ","环卫工":" ","养殖点":" "}},{"type":"Feature","id":10,"geometry":{"type":"Point","coordinates":[114.19949354839947,35.799132556706574]},"properties":{"FID":10,"OBJECTID":11,"名称":"主题民宿","备注":" ","环卫工":" ","养殖点":" "}},{"type":"Feature","id":11,"geometry":{"type":"Point","coordinates":[114.19919338049516,35.79848921331449]},"properties":{"FID":11,"OBJECTID":12,"名称":"百草药馆","备注":" ","环卫工":" ","养殖点":" "}},{"type":"Feature","id":12,"geometry":{"type":"Point","coordinates":[114.19884081761754,35.797960416989376]},"properties":{"FID":12,"OBJECTID":13,"名称":"淇河诗舍","备注":" ","环卫工":" ","养殖点":" "}},{"type":"Feature","id":13,"geometry":{"type":"Point","coordinates":[114.19799310052882,35.79774403576787]},"properties":{"FID":13,"OBJECTID":14,"名称":"淇河栈道","备注":" ","环卫工":" ","养殖点":" "}},{"type":"Feature","id":14,"geometry":{"type":"Point","coordinates":[114.19939594967867,35.797558885582262]},"properties":{"FID":14,"OBJECTID":15,"名称":"有机农坊","备注":" ","环卫工":" ","养殖点":" "}},{"type":"Feature","id":15,"geometry":{"type":"Point","coordinates":[114.20150150947593,35.798661724458661]},"properties":{"FID":15,"OBJECTID":16,"名称":"帐篷营地","备注":" ","环卫工":" ","养殖点":" "}},{"type":"Feature","id":16,"geometry":{"type":"Point","coordinates":[114.20178338030979,35.804102997033816]},"properties":{"FID":16,"OBJECTID":17,"名称":"雷锋塔","备注":" ","环卫工":" ","养殖点":" "}},{"type":"Feature","id":17,"geometry":{"type":"Point","coordinates":[114.20236556308754,35.802814338363042]},"properties":{"FID":17,"OBJECTID":18,"名称":"中草药花海","备注":" ","环卫工":" ","养殖点":" "}},{"type":"Feature","id":18,"geometry":{"type":"Point","coordinates":[114.20053139219556,35.801924060237162]},"properties":{"FID":18,"OBJECTID":19,"名称":"仙草园","备注":" ","环卫工":" ","养殖点":" "}},{"type":"Feature","id":19,"geometry":{"type":"Point","coordinates":[114.20779306815768,35.789005568598569]},"properties":{"FID":19,"OBJECTID":20,"名称":"村庄次入口","备注":" ","环卫工":" ","养殖点":" "}},{"type":"Feature","id":20,"geometry":{"type":"Point","coordinates":[114.20534923107529,35.793473591635461]},"properties":{"FID":20,"OBJECTID":21,"名称":"原生禅庐","备注":" ","环卫工":" ","养殖点":" "}},{"type":"Feature","id":21,"geometry":{"type":"Point","coordinates":[114.20793881413681,35.790398972875465]},"properties":{"FID":21,"OBJECTID":22,"名称":"淇河三珍博物馆","备注":" ","环卫工":" ","养殖点":" "}},{"type":"Feature","id":22,"geometry":{"type":"Point","coordinates":[114.20698811849233,35.801876477751868]},"properties":{"FID":22,"OBJECTID":23,"名称":"仙草园","备注":" ","环卫工":" ","养殖点":" "}},{"type":"Feature","id":23,"geometry":{"type":"Point","coordinates":[114.20641730798381,35.796214047673466]},"properties":{"FID":23,"OBJECTID":24,"名称":"仙草缘农场","备注":" ","环卫工":" ","养殖点":" "}},{"type":"Feature","id":24,"geometry":{"type":"Point","coordinates":[114.2033440200556,35.795090005897571]},"properties":{"FID":24,"OBJECTID":25,"名称":"竹海演绎广场","备注":" ","环卫工":" ","养殖点":" "}},{"type":"Feature","id":25,"geometry":{"type":"Point","coordinates":[114.20160274556606,35.809107939836551]},"properties":{"FID":25,"OBJECTID":26,"名称":"高标准农业园","备注":" ","环卫工":" ","养殖点":" "}},{"type":"Feature","id":26,"geometry":{"type":"Point","coordinates":[114.1975134678913,35.811347949804507]},"properties":{"FID":26,"OBJECTID":27,"名称":"大型机械停放场","备注":" ","环卫工":" ","养殖点":" "}},{"type":"Feature","id":27,"geometry":{"type":"Point","coordinates":[114.19733411823947,35.810018854375166]},"properties":{"FID":27,"OBJECTID":28,"名称":"生态涵养林","备注":" ","环卫工":" ","养殖点":" "}},{"type":"Feature","id":28,"geometry":{"type":"Point","coordinates":[114.19471118704359,35.804085149620278]},"properties":{"FID":28,"OBJECTID":29,"名称":"果药套种园","备注":" ","环卫工":" ","养殖点":" "}},{"type":"Feature","id":29,"geometry":{"type":"Point","coordinates":[114.19503747051573,35.802117631435202]},"properties":{"FID":29,"OBJECTID":30,"名称":"生态温泉浴场","备注":" ","环卫工":" ","养殖点":" "}},{"type":"Feature","id":30,"geometry":{"type":"Point","coordinates":[114.19486544654033,35.80016790649573]},"properties":{"FID":30,"OBJECTID":31,"名称":"发电水厂","备注":" ","环卫工":" ","养殖点":" "}},{"type":"Feature","id":31,"geometry":{"type":"Point","coordinates":[114.19252930437706,35.802466842042037]},"properties":{"FID":31,"OBJECTID":32,"名称":"生态涵养林","备注":" ","环卫工":" ","养殖点":" "}},{"type":"Feature","id":32,"geometry":{"type":"Point","coordinates":[114.19312508518185,35.798821702460721]},"properties":{"FID":32,"OBJECTID":33,"名称":"许沟温泉","备注":" ","环卫工":" ","养殖点":" "}},{"type":"Feature","id":33,"geometry":{"type":"Point","coordinates":[114.19155624872553,35.799517461387047]},"properties":{"FID":33,"OBJECTID":34,"名称":"诗经餐厅","备注":" ","环卫工":" ","养殖点":" "}},{"type":"Feature","id":34,"geometry":{"type":"Point","coordinates":[114.18941414548796,35.799385417024311]},"properties":{"FID":34,"OBJECTID":35,"名称":"罗贯中雕塑","备注":" ","环卫工":" ","养殖点":" "}},{"type":"Feature","id":35,"geometry":{"type":"Point","coordinates":[114.18860921123559,35.797268677553348]},"properties":{"FID":35,"OBJECTID":36,"名称":"诗经水公园","备注":" ","环卫工":" ","养殖点":" "}},{"type":"Feature","id":36,"geometry":{"type":"Point","coordinates":[114.19914012153453,35.800927683468444]},"properties":{"FID":36,"OBJECTID":37,"名称":"果酒加工园","备注":" ","环卫工":" ","养殖点":" "}},{"type":"Feature","id":37,"geometry":{"type":"Point","coordinates":[114.19833362012454,35.800309022197837]},"properties":{"FID":37,"OBJECTID":38,"名称":"农产品加工","备注":" ","环卫工":" ","养殖点":" "}},{"type":"Feature","id":38,"geometry":{"type":"Point","coordinates":[114.19445278295852,35.805326186742001]},"properties":{"FID":38,"OBJECTID":39,"名称":"瓜果采摘","备注":" ","环卫工":" ","养殖点":" "}},{"type":"Feature","id":39,"geometry":{"type":"Point","coordinates":[114.19913674935567,35.804364305483801]},"properties":{"FID":39,"OBJECTID":40,"名称":" ","备注":" ","环卫工":"垃圾收集点","养殖点":" "}},{"type":"Feature","id":40,"geometry":{"type":"Point","coordinates":[114.1994122629726,35.804504539338936]},"properties":{"FID":40,"OBJECTID":41,"名称":" ","备注":" ","环卫工":"公厕","养殖点":" "}},{"type":"Feature","id":41,"geometry":{"type":"Point","coordinates":[114.1983172539129,35.803242516906316]},"properties":{"FID":41,"OBJECTID":42,"名称":" ","备注":" ","环卫工":"垃圾收集点","养殖点":" "}},{"type":"Feature","id":42,"geometry":{"type":"Point","coordinates":[114.19939203580121,35.8022678245121]},"properties":{"FID":42,"OBJECTID":43,"名称":" ","备注":" ","环卫工":"垃圾收集点","养殖点":" "}},{"type":"Feature","id":43,"geometry":{"type":"Point","coordinates":[114.19802012939651,35.801468869203248]},"properties":{"FID":43,"OBJECTID":44,"名称":" ","备注":" ","环卫工":"垃圾收集点","养殖点":" "}},{"type":"Feature","id":44,"geometry":{"type":"Point","coordinates":[114.19959988210481,35.801103798248235]},"properties":{"FID":44,"OBJECTID":45,"名称":" ","备注":" ","环卫工":"垃圾收集点","养殖点":" "}},{"type":"Feature","id":45,"geometry":{"type":"Point","coordinates":[114.19849757074451,35.800418860625214]},"properties":{"FID":45,"OBJECTID":46,"名称":" ","备注":" ","环卫工":"垃圾收集点","养殖点":" "}},{"type":"Feature","id":46,"geometry":{"type":"Point","coordinates":[114.19870791942562,35.800256360792957]},"properties":{"FID":46,"OBJECTID":47,"名称":" ","备注":" ","环卫工":"垃圾收集点","养殖点":" "}},{"type":"Feature","id":47,"geometry":{"type":"Point","coordinates":[114.19949057078078,35.799530148069039]},"properties":{"FID":47,"OBJECTID":48,"名称":" ","备注":" ","环卫工":"垃圾收集点","养殖点":" "}},{"type":"Feature","id":48,"geometry":{"type":"Point","coordinates":[114.19819580791908,35.799131677403977]},"properties":{"FID":48,"OBJECTID":49,"名称":" ","备注":" ","环卫工":"垃圾收集点","养殖点":" "}},{"type":"Feature","id":49,"geometry":{"type":"Point","coordinates":[114.20135780411624,35.799431651268492]},"properties":{"FID":49,"OBJECTID":50,"名称":" ","备注":" ","环卫工":"垃圾收集点","养殖点":" "}},{"type":"Feature","id":50,"geometry":{"type":"Point","coordinates":[114.20154463003833,35.799231032718922]},"properties":{"FID":50,"OBJECTID":51,"名称":" ","备注":" ","环卫工":"公厕","养殖点":" "}},{"type":"Feature","id":51,"geometry":{"type":"Point","coordinates":[114.19799385682052,35.797958789146534]},"properties":{"FID":51,"OBJECTID":52,"名称":" ","备注":" ","环卫工":"垃圾收集点","养殖点":" "}},{"type":"Feature","id":52,"geometry":{"type":"Point","coordinates":[114.19862549904995,35.797719287718749]},"properties":{"FID":52,"OBJECTID":53,"名称":" ","备注":" ","环卫工":"公厕","养殖点":" "}},{"type":"Feature","id":53,"geometry":{"type":"Point","coordinates":[114.19362438053017,35.80693399769428]},"properties":{"FID":53,"OBJECTID":54,"名称":" ","备注":" ","环卫工":" ","养殖点":"养猪场"}},{"type":"Feature","id":54,"geometry":{"type":"Point","coordinates":[114.19772783906886,35.809013836190161]},"properties":{"FID":54,"OBJECTID":55,"名称":" ","备注":" ","环卫工":" ","养殖点":"养猪场"}},{"type":"Feature","id":55,"geometry":{"type":"Point","coordinates":[114.201161773328,35.806712970210995]},"properties":{"FID":55,"OBJECTID":56,"名称":" ","备注":" ","环卫工":" ","养殖点":"养猪场"}},{"type":"Feature","id":56,"geometry":{"type":"Point","coordinates":[114.20591123554617,35.803813612204102]},"properties":{"FID":56,"OBJECTID":57,"名称":" ","备注":" ","环卫工":" ","养殖点":"养羊场"}},{"type":"Feature","id":57,"geometry":{"type":"Point","coordinates":[114.20810578093516,35.789442648059321]},"properties":{"FID":57,"OBJECTID":58,"名称":" ","备注":" ","环卫工":" ","养殖点":"养鸭场"}},{"type":"Feature","id":58,"geometry":{"type":"Point","coordinates":[114.19756124633358,35.803803776710417]},"properties":{"FID":58,"OBJECTID":59,"名称":" ","备注":" ","环卫工":" ","养殖点":"养猪场"}}]}